%  GPST                      x-ecef(m)      y-ecef(m)      z-ecef(m)   Q  ns   sdx(m)   sdy(m)   sdz(m)  sdxy(m)  sdyz(m)  sdzx(m) age(s)  ratio
2021/05/11 03:42:11.000  -1641132.8066  -3665053.7595   4940068.5793   1  25   0.0099   0.0099   0.0100   0.0000   0.0000   0.0000   0.00    0.0
2021/05/11 03:42:12.000  -1641132.8063  -3665053.7589   4940068.5785   1  25   0.0099   0.0099   0.0100   0.0000   0.0000   0.0000   0.00    0.0
2021/05/11 03:42:13.000  -1641132.8063  -3665053.7589   4940068.5785   1  25   0.0099   0.0099   0.0100   0.0000   0.0000   0.0000   0.00    0.0
2021/05/11 03:42:14.000  -1641132.8042  -3665053.7714   4940068.5738   1  25   0.0099   0.0099   0.0100   0.0000   0.0000   0.0000   0.00    0.0
2021/05/11 03:42:15.000  -1641132.8091  -3665053.7651   4940068.5692   1  25   0.0099   0.0099   0.0100   0.0000   0.0000   0.0000   0.00    0.0
2021/05/11 03:42:16.000  -1641132.8078  -3665053.7622   4940068.5653   1  25   0.0099   0.0099   0.0100   0.0000   0.0000   0.0000   0.00    0.0
2021/05/11 03:42:17.000  -1641132.8055  -3665053.7572   4940068.5761   1  25   0.0099   0.0099   0.0100   0.0000   0.0000   0.0000   0.00    0.0
2021/05/11 03:42:18.000  -1641132.8083  -3665053.7634   4940068.5668   1  25   0.0099   0.0099   0.0100   0.0000   0.0000   0.0000   0.00    0.0
2021/05/11 03:42:19.000  -1641132.8086  -3665053.7640   4940068.5676   1  25   0.0099   0.0099   0.0100   0.0000   0.0000   0.0000   0.00    0.0
2021/05/11 03:42:20.000  -1641132.8075  -3665053.7617   4940068.5645   1  25   0.0099   0.0099   0.0100   0.0000   0.0000   0.0000   0.00    0.0
2021/05/11 03:42:21.000  -1641132.8066  -3665053.7595   4940068.5793   1  25   0.0099   0.0099   0.0100   0.0000   0.0000   0.0000   0.00    0.0
2021/05/11 03:42:22.000  -1641132.8063  -3665053.7589   4940068.5785   1  25   0.0099   0.0099   0.0100   0.0000   0.0000   0.0000   0.00    0.0
2021/05/11 03:42:23.000  -1641132.8053  -3665053.7566   4940068.5754   1  25   0.0099   0.0099   0.0100   0.0000   0.0000   0.0000   0.00    0.0
2021/05/11 03:42:24.000  -1641132.8045  -3665053.7549   4940068.5730   1  25   0.0099   0.0099   0.0100   0.0000   0.0000   0.0000   0.00    0.0
2021/05/11 03:42:25.000  -1641132.8080  -3665053.7628   4940068.5660   1  25   0.0099   0.0099   0.0100   0.0000   0.0000   0.0000   0.00    0.0
2021/05/11 03:42:26.000  -1641132.8053  -3665053.7566   4940068.5754   1  25   0.0099   0.0099   0.0100   0.0000   0.0000   0.0000   0.00    0.0
2021/05/11 03:42:27.000  -1641132.8063  -3665053.7589   4940068.5785   1  25   0.0099   0.0099   0.0100   0.0000   0.0000   0.0000   0.00    0.0
2021/05/11 03:42:28.000  -1641132.8045  -3665053.7549   4940068.5730   1  25   0.0099   0.0099   0.0100   0.0000   0.0000   0.0000   0.00    0.0
2021/05/11 03:42:29.000  -1641132.8075  -3665053.7617   4940068.5645   1  25   0.0099   0.0099   0.0100   0.0000   0.0000   0.0000   0.00    0.0
2021/05/11 03:42:30.000  -1641132.8050  -3665053.7561   4940068.5746   1  25   0.0099   0.0099   0.0100   0.0000   0.0000   0.0000   0.00    0.0
2021/05/11 03:42:31.000  -1641132.8045  -3665053.7549   4940068.5730   1  25   0.0099   0.0099   0.0100   0.0000   0.0000   0.0000   0.00    0.0
2021/05/11 03:42:32.000  -1641132.7973  -3665053.7561   4940068.5707   1  25   0.0099   0.0099   0.0100   0.0000   0.0000   0.0000   0.00    0.0
2021/05/11 03:42:33.000  -1641132.8058  -3665053.7578   4940068.5769   1  25   0.0099   0.0099   0.0100   0.0000   0.0000   0.0000   0.00    0.0
2021/05/11 03:42:34.000  -1641132.8058  -3665053.7578   4940068.5769   1  25   0.0099   0.0099   0.0100   0.0000   0.0000   0.0000   0.00    0.0
2021/05/11 03:42:35.000  -1641132.8048  -3665053.7555   4940068.5738   1  25   0.0099   0.0099   0.0100   0.0000   0.0000   0.0000   0.00    0.0
2021/05/11 03:42:36.000  -1641132.8078  -3665053.7622   4940068.5653   1  25   0.0099   0.0099   0.0100   0.0000   0.0000   0.0000   0.00    0.0
2021/05/11 03:42:37.000  -1641132.8068  -3665053.7599   4940068.5622   1  25   0.0099   0.0099   0.0100   0.0000   0.0000   0.0000   0.00    0.0
2021/05/11 03:42:38.000  -1641132.8078  -3665053.7622   4940068.5653   1  25   0.0099   0.0099   0.0100   0.0000   0.0000   0.0000   0.00    0.0
2021/05/11 03:42:39.000  -1641132.8086  -3665053.7640   4940068.5676   1  25   0.0099   0.0099   0.0100   0.0000   0.0000   0.0000   0.00    0.0
2021/05/11 03:42:40.000  -1641132.8078  -3665053.7622   4940068.5653   1  25   0.0099   0.0099   0.0100   0.0000   0.0000   0.0000   0.00    0.0
2021/05/11 03:42:41.000  -1641132.8078  -3665053.7622   4940068.5653   1  25   0.0099   0.0099   0.0100   0.0000   0.0000   0.0000   0.00    0.0
2021/05/11 03:42:42.000  -1641132.8088  -3665053.7645   4940068.5684   1  25   0.0099   0.0099   0.0100   0.0000   0.0000   0.0000   0.00    0.0
2021/05/11 03:42:43.000  -1641132.8073  -3665053.7611   4940068.5637   1  25   0.0099   0.0099   0.0100   0.0000   0.0000   0.0000   0.00    0.0
2021/05/11 03:42:44.000  -1641132.8080  -3665053.7628   4940068.5660   1  25   0.0099   0.0099   0.0100   0.0000   0.0000   0.0000   0.00    0.0
2021/05/11 03:42:45.000  -1641132.8078  -3665053.7622   4940068.5653   1  25   0.0099   0.0099   0.0100   0.0000   0.0000   0.0000   0.00    0.0
2021/05/11 03:42:46.000  -1641132.8086  -3665053.7640   4940068.5676   1  25   0.0099   0.0099   0.0100   0.0000   0.0000   0.0000   0.00    0.0
2021/05/11 03:42:47.000  -1641132.8088  -3665053.7645   4940068.5684   1  25   0.0099   0.0099   0.0100   0.0000   0.0000   0.0000   0.00    0.0
2021/05/11 03:42:48.000  -1641132.8086  -3665053.7640   4940068.5676   1  25   0.0099   0.0099   0.0100   0.0000   0.0000   0.0000   0.00    0.0
2021/05/11 03:42:49.000  -1641132.8096  -3665053.7663   4940068.5707   1  25   0.0099   0.0099   0.0100   0.0000   0.0000   0.0000   0.00    0.0
2021/05/11 03:42:50.000  -1641132.8053  -3665053.7566   4940068.5754   1  25   0.0099   0.0099   0.0100   0.0000   0.0000   0.0000   0.00    0.0
2021/05/11 03:42:51.000  -1641132.8078  -3665053.7622   4940068.5653   1  25   0.0099   0.0099   0.0100   0.0000   0.0000   0.0000   0.00    0.0
2021/05/11 03:42:52.000  -1641132.8065  -3665053.7594   4940068.5614   1  25   0.0099   0.0099   0.0100   0.0000   0.0000   0.0000   0.00    0.0
2021/05/11 03:42:53.000  -1641132.8045  -3665053.7549   4940068.5730   1  25   0.0099   0.0099   0.0100   0.0000   0.0000   0.0000   0.00    0.0
2021/05/11 03:42:54.000  -1641132.8050  -3665053.7561   4940068.5746   1  25   0.0099   0.0099   0.0100   0.0000   0.0000   0.0000   0.00    0.0
2021/05/11 03:42:55.000  -1641132.8055  -3665053.7572   4940068.5761   1  25   0.0099   0.0099   0.0100   0.0000   0.0000   0.0000   0.00    0.0
2021/05/11 03:42:56.000  -1641132.8106  -3665053.7515   4940068.5723   1  25   0.0099   0.0099   0.0100   0.0000   0.0000   0.0000   0.00    0.0
2021/05/11 03:42:57.000  -1641132.8050  -3665053.7561   4940068.5746   1  25   0.0099   0.0099   0.0100   0.0000   0.0000   0.0000   0.00    0.0
2021/05/11 03:42:58.000  -1641132.8050  -3665053.7731   4940068.5762   1  25   0.0099   0.0099   0.0100   0.0000   0.0000   0.0000   0.00    0.0
2021/05/11 03:42:59.000  -1641132.8032  -3665053.7691   4940068.5707   1  25   0.0099   0.0099   0.0100   0.0000   0.0000   0.0000   0.00    0.0
2021/05/11 03:43:00.000  -1641132.8032  -3665053.7691   4940068.5707   1  25   0.0099   0.0099   0.0100   0.0000   0.0000   0.0000   0.00    0.0
2021/05/11 03:43:01.000  -1641132.8037  -3665053.7703   4940068.5723   1  25   0.0099   0.0099   0.0100   0.0000   0.0000   0.0000   0.00    0.0
2021/05/11 03:43:02.000  -1641132.8042  -3665053.7714   4940068.5738   1  25   0.0099   0.0099   0.0100   0.0000   0.0000   0.0000   0.00    0.0
2021/05/11 03:43:03.000  -1641132.8042  -3665053.7714   4940068.5738   1  25   0.0099   0.0099   0.0100   0.0000   0.0000   0.0000   0.00    0.0
2021/05/11 03:43:04.000  -1641132.8032  -3665053.7691   4940068.5707   1  25   0.0099   0.0099   0.0100   0.0000   0.0000   0.0000   0.00    0.0
2021/05/11 03:43:05.000  -1641132.8006  -3665053.7634   4940068.5629   1  25   0.0099   0.0099   0.0100   0.0000   0.0000   0.0000   0.00    0.0
2021/05/11 03:43:06.000  -1641132.7981  -3665053.7578   4940068.5730   1  25   0.0099   0.0099   0.0100   0.0000   0.0000   0.0000   0.00    0.0
2021/05/11 03:43:07.000  -1641132.8029  -3665053.7685   4940068.5699   1  25   0.0099   0.0099   0.0100   0.0000   0.0000   0.0000   0.00    0.0
2021/05/11 03:43:08.000  -1641132.8029  -3665053.7685   4940068.5699   1  25   0.0099   0.0099   0.0100   0.0000   0.0000   0.0000   0.00    0.0
2021/05/11 03:43:09.000  -1641132.8034  -3665053.7697   4940068.5715   1  25   0.0099   0.0099   0.0100   0.0000   0.0000   0.0000   0.00    0.0
2021/05/11 03:43:10.000  -1641132.8027  -3665053.7680   4940068.5692   1  25   0.0099   0.0099   0.0100   0.0000   0.0000   0.0000   0.00    0.0
2021/05/11 03:43:11.000  -1641132.8027  -3665053.7680   4940068.5692   1  25   0.0099   0.0099   0.0100   0.0000   0.0000   0.0000   0.00    0.0
2021/05/11 03:43:12.000  -1641132.8027  -3665053.7680   4940068.5692   1  25   0.0099   0.0099   0.0100   0.0000   0.0000   0.0000   0.00    0.0
2021/05/11 03:43:13.000  -1641132.8034  -3665053.7697   4940068.5715   1  26   0.0099   0.0099   0.0100   0.0000   0.0000   0.0000   0.00    0.0
2021/05/11 03:43:14.000  -1641132.8017  -3665053.7657   4940068.5660   1  26   0.0099   0.0099   0.0100   0.0000   0.0000   0.0000   0.00    0.0
2021/05/11 03:43:15.000  -1641132.8022  -3665053.7668   4940068.5676   1  26   0.0099   0.0099   0.0100   0.0000   0.0000   0.0000   0.00    0.0
2021/05/11 03:43:16.000  -1641132.7997  -3665053.7612   4940068.5777   1  26   0.0099   0.0099   0.0100   0.0000   0.0000   0.0000   0.00    0.0
2021/05/11 03:43:17.000  -1641132.8066  -3665053.7595   4940068.5793   1  26   0.0099   0.0099   0.0100   0.0000   0.0000   0.0000   0.00    0.0
2021/05/11 03:43:18.000  -1641132.8101  -3665053.7674   4940068.5723   1  26   0.0099   0.0099   0.0100   0.0000   0.0000   0.0000   0.00    0.0
2021/05/11 03:43:19.000  -1641132.8027  -3665053.7680   4940068.5692   1  26   0.0099   0.0099   0.0100   0.0000   0.0000   0.0000   0.00    0.0
2021/05/11 03:43:20.000  -1641132.8027  -3665053.7680   4940068.5692   1  26   0.0099   0.0099   0.0100   0.0000   0.0000   0.0000   0.00    0.0
2021/05/11 03:43:21.000  -1641132.8104  -3665053.7680   4940068.5730   1  26   0.0099   0.0099   0.0100   0.0000   0.0000   0.0000   0.00    0.0
2021/05/11 03:43:22.000  -1641132.8106  -3665053.7685   4940068.5738   1  26   0.0099   0.0099   0.0100   0.0000   0.0000   0.0000   0.00    0.0
2021/05/11 03:43:23.000  -1641132.8042  -3665053.7714   4940068.5738   1  26   0.0099   0.0099   0.0100   0.0000   0.0000   0.0000   0.00    0.0
2021/05/11 03:43:24.000  -1641132.8088  -3665053.7645   4940068.5684   1  26   0.0099   0.0099   0.0100   0.0000   0.0000   0.0000   0.00    0.0
2021/05/11 03:43:25.000  -1641132.8093  -3665053.7657   4940068.5699   1  26   0.0099   0.0099   0.0100   0.0000   0.0000   0.0000   0.00    0.0
2021/05/11 03:43:26.000  -1641132.8034  -3665053.7697   4940068.5715   1  26   0.0099   0.0099   0.0100   0.0000   0.0000   0.0000   0.00    0.0
2021/05/11 03:43:27.000  -1641132.8037  -3665053.7703   4940068.5723   1  26   0.0099   0.0099   0.0100   0.0000   0.0000   0.0000   0.00    0.0
2021/05/11 03:43:28.000  -1641132.8029  -3665053.7685   4940068.5699   1  27   0.0099   0.0099   0.0100   0.0000   0.0000   0.0000   0.00    0.0
2021/05/11 03:43:29.000  -1641132.8037  -3665053.7703   4940068.5723   1  27   0.0099   0.0099   0.0100   0.0000   0.0000   0.0000   0.00    0.0
2021/05/11 03:43:30.000  -1641132.7989  -3665053.7595   4940068.5754   1  27   0.0099   0.0099   0.0100   0.0000   0.0000   0.0000   0.00    0.0
2021/05/11 03:43:31.000  -1641132.7997  -3665053.7612   4940068.5777   1  27   0.0099   0.0099   0.0100   0.0000   0.0000   0.0000   0.00    0.0
2021/05/11 03:43:32.000  -1641132.8024  -3665053.7674   4940068.5684   1  27   0.0099   0.0099   0.0100   0.0000   0.0000   0.0000   0.00    0.0
2021/05/11 03:43:33.000  -1641132.8088  -3665053.7645   4940068.5684   1  27   0.0099   0.0099   0.0100   0.0000   0.0000   0.0000   0.00    0.0
2021/05/11 03:43:34.000  -1641132.8022  -3665053.7668   4940068.5676   1  27   0.0099   0.0099   0.0100   0.0000   0.0000   0.0000   0.00    0.0
2021/05/11 03:43:35.000  -1641132.8014  -3665053.7651   4940068.5653   1  27   0.0099   0.0099   0.0100   0.0000   0.0000   0.0000   0.00    0.0
2021/05/11 03:43:36.000  -1641132.8017  -3665053.7657   4940068.5660   1  27   0.0099   0.0099   0.0100   0.0000   0.0000   0.0000   0.00    0.0
2021/05/11 03:43:37.000  -1641132.8042  -3665053.7714   4940068.5738   1  27   0.0099   0.0099   0.0100   0.0000   0.0000   0.0000   0.00    0.0
2021/05/11 03:43:38.000  -1641132.8093  -3665053.7657   4940068.5699   1  27   0.0099   0.0099   0.0100   0.0000   0.0000   0.0000   0.00    0.0
2021/05/11 03:43:39.000  -1641132.8091  -3665053.7651   4940068.5692   1  27   0.0099   0.0099   0.0100   0.0000   0.0000   0.0000   0.00    0.0
2021/05/11 03:43:40.000  -1641132.8088  -3665053.7645   4940068.5684   1  27   0.0099   0.0099   0.0100   0.0000   0.0000   0.0000   0.00    0.0
2021/05/11 03:43:41.000  -1641132.8034  -3665053.7697   4940068.5715   1  27   0.0099   0.0099   0.0100   0.0000   0.0000   0.0000   0.00    0.0
2021/05/11 03:43:42.000  -1641132.8088  -3665053.7645   4940068.5684   1  27   0.0099   0.0099   0.0100   0.0000   0.0000   0.0000   0.00    0.0
2021/05/11 03:43:43.000  -1641132.8032  -3665053.7691   4940068.5707   1  27   0.0099   0.0099   0.0100   0.0000   0.0000   0.0000   0.00    0.0
2021/05/11 03:43:44.000  -1641132.8091  -3665053.7651   4940068.5692   1  27   0.0099   0.0099   0.0100   0.0000   0.0000   0.0000   0.00    0.0
2021/05/11 03:43:45.000  -1641132.8096  -3665053.7663   4940068.5707   1  27   0.0099   0.0099   0.0100   0.0000   0.0000   0.0000   0.00    0.0
2021/05/11 03:43:46.000  -1641132.8091  -3665053.7651   4940068.5692   1  27   0.0099   0.0099   0.0100   0.0000   0.0000   0.0000   0.00    0.0
2021/05/11 03:43:47.000  -1641132.8091  -3665053.7651   4940068.5692   1  27   0.0099   0.0099   0.0100   0.0000   0.0000   0.0000   0.00    0.0
2021/05/11 03:43:48.000  -1641132.8098  -3665053.7668   4940068.5715   1  27   0.0099   0.0099   0.0100   0.0000   0.0000   0.0000   0.00    0.0
2021/05/11 03:43:49.000  -1641132.8083  -3665053.7634   4940068.5668   1  27   0.0099   0.0099   0.0100   0.0000   0.0000   0.0000   0.00    0.0
2021/05/11 03:43:50.000  -1641132.8093  -3665053.7657   4940068.5699   1  27   0.0099   0.0099   0.0100   0.0000   0.0000   0.0000   0.00    0.0
2021/05/11 03:43:51.000  -1641132.8096  -3665053.7663   4940068.5707   1  27   0.0099   0.0099   0.0100   0.0000   0.0000   0.0000   0.00    0.0
2021/05/11 03:43:52.000  -1641132.8157  -3665053.7628   4940068.5699   1  27   0.0099   0.0099   0.0100   0.0000   0.0000   0.0000   0.00    0.0
2021/05/11 03:43:53.000  -1641132.8093  -3665053.7657   4940068.5699   1  27   0.0099   0.0099   0.0100   0.0000   0.0000   0.0000   0.00    0.0
2021/05/11 03:43:54.000  -1641132.8098  -3665053.7668   4940068.5715   1  27   0.0099   0.0099   0.0100   0.0000   0.0000   0.0000   0.00    0.0
2021/05/11 03:43:55.000  -1641132.8096  -3665053.7663   4940068.5707   1  27   0.0099   0.0099   0.0100   0.0000   0.0000   0.0000   0.00    0.0
2021/05/11 03:43:56.000  -1641132.8150  -3665053.7611   4940068.5676   1  27   0.0099   0.0099   0.0100   0.0000   0.0000   0.0000   0.00    0.0
2021/05/11 03:43:57.000  -1641132.8096  -3665053.7663   4940068.5707   1  27   0.0099   0.0099   0.0100   0.0000   0.0000   0.0000   0.00    0.0
2021/05/11 03:43:58.000  -1641132.8093  -3665053.7657   4940068.5699   1  27   0.0099   0.0099   0.0100   0.0000   0.0000   0.0000   0.00    0.0
2021/05/11 03:43:59.000  -1641132.8093  -3665053.7657   4940068.5699   1  27   0.0099   0.0099   0.0100   0.0000   0.0000   0.0000   0.00    0.0
2021/05/11 03:44:00.000  -1641132.8152  -3665053.7617   4940068.5684   1  27   0.0099   0.0099   0.0100   0.0000   0.0000   0.0000   0.00    0.0
2021/05/11 03:44:01.000  -1641132.8075  -3665053.7617   4940068.5645   1  27   0.0099   0.0099   0.0100   0.0000   0.0000   0.0000   0.00    0.0
2021/05/11 03:44:02.000  -1641132.8106  -3665053.7685   4940068.5738   1  27   0.0099   0.0099   0.0100   0.0000   0.0000   0.0000   0.00    0.0
2021/05/11 03:44:03.000  -1641132.8098  -3665053.7668   4940068.5715   1  27   0.0099   0.0099   0.0100   0.0000   0.0000   0.0000   0.00    0.0
2021/05/11 03:44:04.000  -1641132.8091  -3665053.7651   4940068.5692   1  27   0.0099   0.0099   0.0100   0.0000   0.0000   0.0000   0.00    0.0
2021/05/11 03:44:05.000  -1641132.8093  -3665053.7657   4940068.5699   1  27   0.0099   0.0099   0.0100   0.0000   0.0000   0.0000   0.00    0.0
2021/05/11 03:44:06.000  -1641132.8083  -3665053.7634   4940068.5668   1  27   0.0099   0.0099   0.0100   0.0000   0.0000   0.0000   0.00    0.0
2021/05/11 03:44:07.000  -1641132.8091  -3665053.7651   4940068.5692   1  27   0.0099   0.0099   0.0100   0.0000   0.0000   0.0000   0.00    0.0
2021/05/11 03:44:08.000  -1641132.8088  -3665053.7645   4940068.5684   1  27   0.0099   0.0099   0.0100   0.0000   0.0000   0.0000   0.00    0.0
2021/05/11 03:44:09.000  -1641132.8078  -3665053.7624   4940068.5832   1  27   0.0099   0.0099   0.0100   0.0000   0.0000   0.0000   0.00    0.0
2021/05/11 03:44:10.000  -1641132.8106  -3665053.7685   4940068.5738   1  27   0.0099   0.0099   0.0100   0.0000   0.0000   0.0000   0.00    0.0
2021/05/11 03:44:11.000  -1641132.8111  -3665053.7697   4940068.5754   1  27   0.0099   0.0099   0.0100   0.0000   0.0000   0.0000   0.00    0.0
2021/05/11 03:44:12.000  -1641132.8106  -3665053.7685   4940068.5738   1  27   0.0099   0.0099   0.0100   0.0000   0.0000   0.0000   0.00    0.0
2021/05/11 03:44:13.000  -1641132.8119  -3665053.7714   4940068.5777   1  27   0.0099   0.0099   0.0100   0.0000   0.0000   0.0000   0.00    0.0
2021/05/11 03:44:14.000  -1641132.8124  -3665053.7726   4940068.5793   1  27   0.0099   0.0099   0.0100   0.0000   0.0000   0.0000   0.00    0.0
2021/05/11 03:44:15.000  -1641132.8175  -3665053.7668   4940068.5754   1  27   0.0099   0.0099   0.0100   0.0000   0.0000   0.0000   0.00    0.0
2021/05/11 03:44:16.000  -1641132.8129  -3665053.7737   4940068.5808   1  27   0.0099   0.0099   0.0100   0.0000   0.0000   0.0000   0.00    0.0
2021/05/11 03:44:17.000  -1641132.8116  -3665053.7708   4940068.5769   1  27   0.0099   0.0099   0.0100   0.0000   0.0000   0.0000   0.00    0.0
2021/05/11 03:44:18.000  -1641132.8114  -3665053.7703   4940068.5762   1  27   0.0099   0.0099   0.0100   0.0000   0.0000   0.0000   0.00    0.0
2021/05/11 03:44:19.000  -1641132.8178  -3665053.7674   4940068.5762   1  27   0.0099   0.0099   0.0100   0.0000   0.0000   0.0000   0.00    0.0
2021/05/11 03:44:20.000  -1641132.8114  -3665053.7703   4940068.5762   1  27   0.0099   0.0099   0.0100   0.0000   0.0000   0.0000   0.00    0.0
2021/05/11 03:44:21.000  -1641132.8178  -3665053.7674   4940068.5762   1  27   0.0099   0.0099   0.0100   0.0000   0.0000   0.0000   0.00    0.0
2021/05/11 03:44:22.000  -1641132.8132  -3665053.7572   4940068.5800   1  27   0.0099   0.0099   0.0100   0.0000   0.0000   0.0000   0.00    0.0
2021/05/11 03:44:23.000  -1641132.8114  -3665053.7703   4940068.5762   1  27   0.0099   0.0099   0.0100   0.0000   0.0000   0.0000   0.00    0.0
2021/05/11 03:44:24.000  -1641132.8116  -3665053.7708   4940068.5769   1  27   0.0099   0.0099   0.0100   0.0000   0.0000   0.0000   0.00    0.0
2021/05/11 03:44:25.000  -1641132.8162  -3665053.7640   4940068.5715   1  27   0.0099   0.0099   0.0100   0.0000   0.0000   0.0000   0.00    0.0
2021/05/11 03:44:26.000  -1641132.8162  -3665053.7640   4940068.5715   1  27   0.0099   0.0099   0.0100   0.0000   0.0000   0.0000   0.00    0.0
2021/05/11 03:44:27.000  -1641132.8119  -3665053.7714   4940068.5777   1  27   0.0099   0.0099   0.0100   0.0000   0.0000   0.0000   0.00    0.0
2021/05/11 03:44:28.000  -1641132.8089  -3665053.7647   4940068.5863   1  27   0.0099   0.0099   0.0100   0.0000   0.0000   0.0000   0.00    0.0
2021/05/11 03:44:29.000  -1641132.8111  -3665053.7697   4940068.5754   1  27   0.0099   0.0099   0.0100   0.0000   0.0000   0.0000   0.00    0.0
2021/05/11 03:44:30.000  -1641132.8175  -3665053.7668   4940068.5754   1  27   0.0099   0.0099   0.0100   0.0000   0.0000   0.0000   0.00    0.0
2021/05/11 03:44:31.000  -1641132.8165  -3665053.7645   4940068.5723   1  27   0.0099   0.0099   0.0100   0.0000   0.0000   0.0000   0.00    0.0
2021/05/11 03:44:32.000  -1641132.8178  -3665053.7674   4940068.5762   1  27   0.0099   0.0099   0.0100   0.0000   0.0000   0.0000   0.00    0.0
2021/05/11 03:44:33.000  -1641132.8109  -3665053.7691   4940068.5746   1  27   0.0099   0.0099   0.0100   0.0000   0.0000   0.0000   0.00    0.0
2021/05/11 03:44:34.000  -1641132.8119  -3665053.7714   4940068.5777   1  27   0.0099   0.0099   0.0100   0.0000   0.0000   0.0000   0.00    0.0
2021/05/11 03:44:35.000  -1641132.8191  -3665053.7703   4940068.5801   1  27   0.0099   0.0099   0.0100   0.0000   0.0000   0.0000   0.00    0.0
2021/05/11 03:44:36.000  -1641132.8173  -3665053.7663   4940068.5746   1  27   0.0099   0.0099   0.0100   0.0000   0.0000   0.0000   0.00    0.0
2021/05/11 03:44:37.000  -1641132.8173  -3665053.7663   4940068.5746   1  27   0.0099   0.0099   0.0100   0.0000   0.0000   0.0000   0.00    0.0
2021/05/11 03:44:38.000  -1641132.8178  -3665053.7674   4940068.5762   1  27   0.0099   0.0099   0.0100   0.0000   0.0000   0.0000   0.00    0.0
2021/05/11 03:44:39.000  -1641132.8137  -3665053.7754   4940068.5832   1  27   0.0099   0.0099   0.0100   0.0000   0.0000   0.0000   0.00    0.0
2021/05/11 03:44:40.000  -1641132.8168  -3665053.7651   4940068.5730   1  27   0.0099   0.0099   0.0100   0.0000   0.0000   0.0000   0.00    0.0
2021/05/11 03:44:41.000  -1641132.8104  -3665053.7680   4940068.5730   1  27   0.0099   0.0099   0.0100   0.0000   0.0000   0.0000   0.00    0.0
2021/05/11 03:44:42.000  -1641132.8109  -3665053.7691   4940068.5746   1  27   0.0099   0.0099   0.0100   0.0000   0.0000   0.0000   0.00    0.0
2021/05/11 03:44:43.000  -1641132.8099  -3665053.7670   4940068.5894   1  27   0.0099   0.0099   0.0100   0.0000   0.0000   0.0000   0.00    0.0
2021/05/11 03:44:44.000  -1641132.8084  -3665053.7635   4940068.5847   1  27   0.0099   0.0099   0.0100   0.0000   0.0000   0.0000   0.00    0.0
2021/05/11 03:44:45.000  -1641132.8127  -3665053.7731   4940068.5801   1  27   0.0099   0.0099   0.0100   0.0000   0.0000   0.0000   0.00    0.0
2021/05/11 03:44:46.000  -1641132.8109  -3665053.7691   4940068.5746   1  27   0.0099   0.0099   0.0100   0.0000   0.0000   0.0000   0.00    0.0
2021/05/11 03:44:47.000  -1641132.8116  -3665053.7708   4940068.5769   1  27   0.0099   0.0099   0.0100   0.0000   0.0000   0.0000   0.00    0.0
2021/05/11 03:44:48.000  -1641132.8073  -3665053.7612   4940068.5816   1  27   0.0099   0.0099   0.0100   0.0000   0.0000   0.0000   0.00    0.0
2021/05/11 03:44:49.000  -1641132.8106  -3665053.7685   4940068.5738   1  27   0.0099   0.0099   0.0100   0.0000   0.0000   0.0000   0.00    0.0
2021/05/11 03:44:50.000  -1641132.8096  -3665053.7663   4940068.5707   1  27   0.0099   0.0099   0.0100   0.0000   0.0000   0.0000   0.00    0.0
2021/05/11 03:44:51.000  -1641132.8114  -3665053.7703   4940068.5762   1  27   0.0099   0.0099   0.0100   0.0000   0.0000   0.0000   0.00    0.0
2021/05/11 03:44:52.000  -1641132.8101  -3665053.7674   4940068.5723   1  27   0.0099   0.0099   0.0100   0.0000   0.0000   0.0000   0.00    0.0
2021/05/11 03:44:53.000  -1641132.8111  -3665053.7697   4940068.5754   1  27   0.0099   0.0099   0.0100   0.0000   0.0000   0.0000   0.00    0.0
2021/05/11 03:44:54.000  -1641132.8165  -3665053.7645   4940068.5723   1  27   0.0099   0.0099   0.0100   0.0000   0.0000   0.0000   0.00    0.0
2021/05/11 03:44:55.000  -1641132.8091  -3665053.7651   4940068.5692   1  27   0.0099   0.0099   0.0100   0.0000   0.0000   0.0000   0.00    0.0
2021/05/11 03:44:56.000  -1641132.8093  -3665053.7657   4940068.5699   1  27   0.0099   0.0099   0.0100   0.0000   0.0000   0.0000   0.00    0.0
2021/05/11 03:44:57.000  -1641132.8106  -3665053.7685   4940068.5738   1  27   0.0099   0.0099   0.0100   0.0000   0.0000   0.0000   0.00    0.0
2021/05/11 03:44:58.000  -1641132.8101  -3665053.7674   4940068.5723   1  27   0.0099   0.0099   0.0100   0.0000   0.0000   0.0000   0.00    0.0
2021/05/11 03:44:59.000  -1641132.8098  -3665053.7668   4940068.5715   1  27   0.0099   0.0099   0.0100   0.0000   0.0000   0.0000   0.00    0.0
2021/05/11 03:45:00.000  -1641132.8091  -3665053.7651   4940068.5692   1  27   0.0099   0.0099   0.0100   0.0000   0.0000   0.0000   0.00    0.0
2021/05/11 03:45:01.000  -1641132.8098  -3665053.7668   4940068.5715   1  27   0.0099   0.0099   0.0100   0.0000   0.0000   0.0000   0.00    0.0
2021/05/11 03:45:02.000  -1641132.8101  -3665053.7674   4940068.5723   1  27   0.0099   0.0099   0.0100   0.0000   0.0000   0.0000   0.00    0.0
2021/05/11 03:45:03.000  -1641132.8119  -3665053.7714   4940068.5777   1  27   0.0099   0.0099   0.0100   0.0000   0.0000   0.0000   0.00    0.0
2021/05/11 03:45:04.000  -1641132.8116  -3665053.7708   4940068.5769   1  27   0.0099   0.0099   0.0100   0.0000   0.0000   0.0000   0.00    0.0
2021/05/11 03:45:05.000  -1641132.8114  -3665053.7703   4940068.5762   1  27   0.0099   0.0099   0.0100   0.0000   0.0000   0.0000   0.00    0.0
2021/05/11 03:45:06.000  -1641132.8114  -3665053.7703   4940068.5762   1  27   0.0099   0.0099   0.0100   0.0000   0.0000   0.0000   0.00    0.0
2021/05/11 03:45:07.000  -1641132.8111  -3665053.7697   4940068.5754   1  27   0.0099   0.0099   0.0100   0.0000   0.0000   0.0000   0.00    0.0
2021/05/11 03:45:08.000  -1641132.8119  -3665053.7714   4940068.5777   1  27   0.0099   0.0099   0.0100   0.0000   0.0000   0.0000   0.00    0.0
2021/05/11 03:45:09.000  -1641132.8114  -3665053.7703   4940068.5762   1  27   0.0099   0.0099   0.0100   0.0000   0.0000   0.0000   0.00    0.0
2021/05/11 03:45:10.000  -1641132.8106  -3665053.7685   4940068.5738   1  27   0.0099   0.0099   0.0100   0.0000   0.0000   0.0000   0.00    0.0
2021/05/11 03:45:11.000  -1641132.8114  -3665053.7703   4940068.5762   1  27   0.0099   0.0099   0.0100   0.0000   0.0000   0.0000   0.00    0.0
2021/05/11 03:45:12.000  -1641132.8114  -3665053.7703   4940068.5762   1  27   0.0099   0.0099   0.0100   0.0000   0.0000   0.0000   0.00    0.0
2021/05/11 03:45:13.000  -1641132.8122  -3665053.7720   4940068.5785   1  27   0.0099   0.0099   0.0100   0.0000   0.0000   0.0000   0.00    0.0
2021/05/11 03:45:14.000  -1641132.8047  -3665053.7726   4940068.5754   1  27   0.0099   0.0099   0.0100   0.0000   0.0000   0.0000   0.00    0.0
2021/05/11 03:45:15.000  -1641132.8104  -3665053.7680   4940068.5730   1  27   0.0099   0.0099   0.0100   0.0000   0.0000   0.0000   0.00    0.0
2021/05/11 03:45:16.000  -1641132.8104  -3665053.7680   4940068.5730   1  27   0.0099   0.0099   0.0100   0.0000   0.0000   0.0000   0.00    0.0
2021/05/11 03:45:17.000  -1641132.8098  -3665053.7668   4940068.5715   1  27   0.0099   0.0099   0.0100   0.0000   0.0000   0.0000   0.00    0.0
2021/05/11 03:45:18.000  -1641132.8114  -3665053.7703   4940068.5762   1  27   0.0099   0.0099   0.0100   0.0000   0.0000   0.0000   0.00    0.0
2021/05/11 03:45:19.000  -1641132.8116  -3665053.7708   4940068.5769   1  27   0.0099   0.0099   0.0100   0.0000   0.0000   0.0000   0.00    0.0
2021/05/11 03:45:20.000  -1641132.8111  -3665053.7697   4940068.5754   1  27   0.0099   0.0099   0.0100   0.0000   0.0000   0.0000   0.00    0.0
2021/05/11 03:45:21.000  -1641132.8098  -3665053.7668   4940068.5715   1  27   0.0099   0.0099   0.0100   0.0000   0.0000   0.0000   0.00    0.0
2021/05/11 03:45:22.000  -1641132.8101  -3665053.7674   4940068.5723   1  27   0.0099   0.0099   0.0100   0.0000   0.0000   0.0000   0.00    0.0
2021/05/11 03:45:23.000  -1641132.8106  -3665053.7685   4940068.5738   1  27   0.0099   0.0099   0.0100   0.0000   0.0000   0.0000   0.00    0.0
2021/05/11 03:45:24.000  -1641132.8104  -3665053.7680   4940068.5730   1  27   0.0099   0.0099   0.0100   0.0000   0.0000   0.0000   0.00    0.0
2021/05/11 03:45:25.000  -1641132.8088  -3665053.7645   4940068.5684   1  27   0.0099   0.0099   0.0100   0.0000   0.0000   0.0000   0.00    0.0
2021/05/11 03:45:26.000  -1641132.8096  -3665053.7663   4940068.5707   1  27   0.0099   0.0099   0.0100   0.0000   0.0000   0.0000   0.00    0.0
2021/05/11 03:45:27.000  -1641132.8106  -3665053.7685   4940068.5738   1  27   0.0099   0.0099   0.0100   0.0000   0.0000   0.0000   0.00    0.0
2021/05/11 03:45:28.000  -1641132.8104  -3665053.7680   4940068.5730   1  27   0.0099   0.0099   0.0100   0.0000   0.0000   0.0000   0.00    0.0
2021/05/11 03:45:29.000  -1641132.8101  -3665053.7674   4940068.5723   1  27   0.0099   0.0099   0.0100   0.0000   0.0000   0.0000   0.00    0.0
2021/05/11 03:45:30.000  -1641132.8104  -3665053.7680   4940068.5730   1  27   0.0099   0.0099   0.0100   0.0000   0.0000   0.0000   0.00    0.0
2021/05/11 03:45:31.000  -1641132.8078  -3665053.7624   4940068.5832   1  27   0.0099   0.0099   0.0100   0.0000   0.0000   0.0000   0.00    0.0
2021/05/11 03:45:32.000  -1641132.8096  -3665053.7663   4940068.5707   1  27   0.0099   0.0099   0.0100   0.0000   0.0000   0.0000   0.00    0.0
2021/05/11 03:45:33.000  -1641132.8101  -3665053.7674   4940068.5723   1  27   0.0099   0.0099   0.0100   0.0000   0.0000   0.0000   0.00    0.0
2021/05/11 03:45:34.000  -1641132.8104  -3665053.7680   4940068.5730   1  27   0.0099   0.0099   0.0100   0.0000   0.0000   0.0000   0.00    0.0
2021/05/11 03:45:35.000  -1641132.8104  -3665053.7680   4940068.5730   1  27   0.0099   0.0099   0.0100   0.0000   0.0000   0.0000   0.00    0.0
2021/05/11 03:45:36.000  -1641132.8096  -3665053.7663   4940068.5707   1  27   0.0099   0.0099   0.0100   0.0000   0.0000   0.0000   0.00    0.0
2021/05/11 03:45:37.000  -1641132.8165  -3665053.7645   4940068.5723   1  27   0.0099   0.0099   0.0100   0.0000   0.0000   0.0000   0.00    0.0
2021/05/11 03:45:38.000  -1641132.8101  -3665053.7674   4940068.5723   1  27   0.0099   0.0099   0.0100   0.0000   0.0000   0.0000   0.00    0.0
2021/05/11 03:45:39.000  -1641132.8084  -3665053.7635   4940068.5847   1  27   0.0099   0.0099   0.0100   0.0000   0.0000   0.0000   0.00    0.0
2021/05/11 03:45:40.000  -1641132.8078  -3665053.7624   4940068.5832   1  27   0.0099   0.0099   0.0100   0.0000   0.0000   0.0000   0.00    0.0
2021/05/11 03:45:41.000  -1641132.8098  -3665053.7668   4940068.5715   1  27   0.0099   0.0099   0.0100   0.0000   0.0000   0.0000   0.00    0.0
2021/05/11 03:45:42.000  -1641132.8098  -3665053.7668   4940068.5715   1  27   0.0099   0.0099   0.0100   0.0000   0.0000   0.0000   0.00    0.0
2021/05/11 03:45:43.000  -1641132.8109  -3665053.7691   4940068.5746   1  27   0.0099   0.0099   0.0100   0.0000   0.0000   0.0000   0.00    0.0
2021/05/11 03:45:44.000  -1641132.8116  -3665053.7708   4940068.5769   1  27   0.0099   0.0099   0.0100   0.0000   0.0000   0.0000   0.00    0.0
2021/05/11 03:45:45.000  -1641132.8093  -3665053.7657   4940068.5699   1  27   0.0099   0.0099   0.0100   0.0000   0.0000   0.0000   0.00    0.0
2021/05/11 03:45:46.000  -1641132.8104  -3665053.7680   4940068.5730   1  27   0.0099   0.0099   0.0100   0.0000   0.0000   0.0000   0.00    0.0
2021/05/11 03:45:47.000  -1641132.8098  -3665053.7668   4940068.5715   1  27   0.0099   0.0099   0.0100   0.0000   0.0000   0.0000   0.00    0.0
2021/05/11 03:45:48.000  -1641132.8109  -3665053.7691   4940068.5746   1  27   0.0099   0.0099   0.0100   0.0000   0.0000   0.0000   0.00    0.0
2021/05/11 03:45:49.000  -1641132.8122  -3665053.7720   4940068.5785   1  27   0.0099   0.0099   0.0100   0.0000   0.0000   0.0000   0.00    0.0
2021/05/11 03:45:50.000  -1641132.8096  -3665053.7663   4940068.5707   1  27   0.0099   0.0099   0.0100   0.0000   0.0000   0.0000   0.00    0.0
2021/05/11 03:45:51.000  -1641132.8101  -3665053.7674   4940068.5723   1  27   0.0099   0.0099   0.0100   0.0000   0.0000   0.0000   0.00    0.0
2021/05/11 03:45:52.000  -1641132.8096  -3665053.7663   4940068.5707   1  27   0.0099   0.0099   0.0100   0.0000   0.0000   0.0000   0.00    0.0
2021/05/11 03:45:53.000  -1641132.8104  -3665053.7680   4940068.5730   1  27   0.0099   0.0099   0.0100   0.0000   0.0000   0.0000   0.00    0.0
2021/05/11 03:45:54.000  -1641132.8104  -3665053.7680   4940068.5730   1  27   0.0099   0.0099   0.0100   0.0000   0.0000   0.0000   0.00    0.0
2021/05/11 03:45:55.000  -1641132.8096  -3665053.7663   4940068.5707   1  27   0.0099   0.0099   0.0100   0.0000   0.0000   0.0000   0.00    0.0
2021/05/11 03:45:56.000  -1641132.8091  -3665053.7651   4940068.5692   1  27   0.0099   0.0099   0.0100   0.0000   0.0000   0.0000   0.00    0.0
2021/05/11 03:45:57.000  -1641132.8096  -3665053.7663   4940068.5707   1  27   0.0099   0.0099   0.0100   0.0000   0.0000   0.0000   0.00    0.0
2021/05/11 03:45:58.000  -1641132.8060  -3665053.7584   4940068.5777   1  27   0.0099   0.0099   0.0100   0.0000   0.0000   0.0000   0.00    0.0
2021/05/11 03:45:59.000  -1641132.8083  -3665053.7634   4940068.5668   1  27   0.0099   0.0099   0.0100   0.0000   0.0000   0.0000   0.00    0.0
2021/05/11 03:46:00.000  -1641132.8091  -3665053.7651   4940068.5692   1  27   0.0099   0.0099   0.0100   0.0000   0.0000   0.0000   0.00    0.0
2021/05/11 03:46:01.000  -1641132.8063  -3665053.7589   4940068.5785   1  27   0.0099   0.0099   0.0100   0.0000   0.0000   0.0000   0.00    0.0
2021/05/11 03:46:02.000  -1641132.8083  -3665053.7634   4940068.5668   1  27   0.0099   0.0099   0.0100   0.0000   0.0000   0.0000   0.00    0.0
2021/05/11 03:46:03.000  -1641132.8096  -3665053.7663   4940068.5707   1  27   0.0099   0.0099   0.0100   0.0000   0.0000   0.0000   0.00    0.0
2021/05/11 03:46:04.000  -1641132.8101  -3665053.7674   4940068.5723   1  27   0.0099   0.0099   0.0100   0.0000   0.0000   0.0000   0.00    0.0
2021/05/11 03:46:05.000  -1641132.8088  -3665053.7645   4940068.5684   1  27   0.0099   0.0099   0.0100   0.0000   0.0000   0.0000   0.00    0.0
2021/05/11 03:46:06.000  -1641132.8086  -3665053.7640   4940068.5676   1  27   0.0099   0.0099   0.0100   0.0000   0.0000   0.0000   0.00    0.0
2021/05/11 03:46:07.000  -1641132.8080  -3665053.7628   4940068.5660   1  27   0.0099   0.0099   0.0100   0.0000   0.0000   0.0000   0.00    0.0
2021/05/11 03:46:08.000  -1641132.8063  -3665053.7589   4940068.5785   1  27   0.0099   0.0099   0.0100   0.0000   0.0000   0.0000   0.00    0.0
2021/05/11 03:46:09.000  -1641132.8096  -3665053.7663   4940068.5707   1  27   0.0099   0.0099   0.0100   0.0000   0.0000   0.0000   0.00    0.0
2021/05/11 03:46:10.000  -1641132.8098  -3665053.7668   4940068.5715   1  27   0.0099   0.0099   0.0100   0.0000   0.0000   0.0000   0.00    0.0
2021/05/11 03:46:11.000  -1641132.8093  -3665053.7657   4940068.5699   1  27   0.0099   0.0099   0.0100   0.0000   0.0000   0.0000   0.00    0.0
2021/05/11 03:46:12.000  -1641132.8088  -3665053.7645   4940068.5684   1  27   0.0099   0.0099   0.0100   0.0000   0.0000   0.0000   0.00    0.0
2021/05/11 03:46:13.000  -1641132.8073  -3665053.7611   4940068.5637   1  27   0.0099   0.0099   0.0100   0.0000   0.0000   0.0000   0.00    0.0
2021/05/11 03:46:14.000  -1641132.8086  -3665053.7640   4940068.5676   1  27   0.0099   0.0099   0.0100   0.0000   0.0000   0.0000   0.00    0.0
2021/05/11 03:46:15.000  -1641132.8066  -3665053.7595   4940068.5793   1  27   0.0099   0.0099   0.0100   0.0000   0.0000   0.0000   0.00    0.0
2021/05/11 03:46:16.000  -1641132.8091  -3665053.7652   4940068.5870   1  27   0.0099   0.0099   0.0100   0.0000   0.0000   0.0000   0.00    0.0
2021/05/11 03:46:17.000  -1641132.8098  -3665053.7668   4940068.5715   1  27   0.0099   0.0099   0.0100   0.0000   0.0000   0.0000   0.00    0.0
2021/05/11 03:46:18.000  -1641132.8080  -3665053.7628   4940068.5660   1  27   0.0099   0.0099   0.0100   0.0000   0.0000   0.0000   0.00    0.0
2021/05/11 03:46:19.000  -1641132.8034  -3665053.7697   4940068.5715   1  27   0.0099   0.0099   0.0100   0.0000   0.0000   0.0000   0.00    0.0
2021/05/11 03:46:20.000  -1641132.8101  -3665053.7674   4940068.5723   1  27   0.0099   0.0099   0.0100   0.0000   0.0000   0.0000   0.00    0.0
2021/05/11 03:46:21.000  -1641132.8104  -3665053.7680   4940068.5730   1  27   0.0099   0.0099   0.0100   0.0000   0.0000   0.0000   0.00    0.0
2021/05/11 03:46:22.000  -1641132.8104  -3665053.7680   4940068.5730   1  27   0.0099   0.0099   0.0100   0.0000   0.0000   0.0000   0.00    0.0
2021/05/11 03:46:23.000  -1641132.8119  -3665053.7714   4940068.5777   1  27   0.0099   0.0099   0.0100   0.0000   0.0000   0.0000   0.00    0.0
2021/05/11 03:46:24.000  -1641132.8096  -3665053.7663   4940068.5707   1  27   0.0099   0.0099   0.0100   0.0000   0.0000   0.0000   0.00    0.0
2021/05/11 03:46:25.000  -1641132.8073  -3665053.7612   4940068.5816   1  27   0.0099   0.0099   0.0100   0.0000   0.0000   0.0000   0.00    0.0
2021/05/11 03:46:26.000  -1641132.8101  -3665053.7674   4940068.5723   1  27   0.0099   0.0099   0.0100   0.0000   0.0000   0.0000   0.00    0.0
2021/05/11 03:46:27.000  -1641132.8114  -3665053.7703   4940068.5762   1  27   0.0099   0.0099   0.0100   0.0000   0.0000   0.0000   0.00    0.0
2021/05/11 03:46:28.000  -1641132.8066  -3665053.7595   4940068.5793   1  27   0.0099   0.0099   0.0100   0.0000   0.0000   0.0000   0.00    0.0
2021/05/11 03:46:29.000  -1641132.8122  -3665053.7720   4940068.5785   1  27   0.0099   0.0099   0.0100   0.0000   0.0000   0.0000   0.00    0.0
2021/05/11 03:46:30.000  -1641132.8104  -3665053.7680   4940068.5730   1  27   0.0099   0.0099   0.0100   0.0000   0.0000   0.0000   0.00    0.0
2021/05/11 03:46:31.000  -1641132.8101  -3665053.7674   4940068.5723   1  27   0.0099   0.0099   0.0100   0.0000   0.0000   0.0000   0.00    0.0
2021/05/11 03:46:32.000  -1641132.8101  -3665053.7674   4940068.5723   1  27   0.0099   0.0099   0.0100   0.0000   0.0000   0.0000   0.00    0.0
2021/05/11 03:46:33.000  -1641132.8078  -3665053.7624   4940068.5832   1  27   0.0099   0.0099   0.0100   0.0000   0.0000   0.0000   0.00    0.0
2021/05/11 03:46:34.000  -1641132.8071  -3665053.7606   4940068.5808   1  27   0.0099   0.0099   0.0100   0.0000   0.0000   0.0000   0.00    0.0
2021/05/11 03:46:35.000  -1641132.8098  -3665053.7668   4940068.5715   1  27   0.0099   0.0099   0.0100   0.0000   0.0000   0.0000   0.00    0.0
2021/05/11 03:46:36.000  -1641132.8093  -3665053.7657   4940068.5699   1  27   0.0099   0.0099   0.0100   0.0000   0.0000   0.0000   0.00    0.0
2021/05/11 03:46:37.000  -1641132.8098  -3665053.7668   4940068.5715   1  27   0.0099   0.0099   0.0100   0.0000   0.0000   0.0000   0.00    0.0
2021/05/11 03:46:38.000  -1641132.8119  -3665053.7714   4940068.5777   1  27   0.0099   0.0099   0.0100   0.0000   0.0000   0.0000   0.00    0.0
2021/05/11 03:46:39.000  -1641132.8104  -3665053.7680   4940068.5730   1  27   0.0099   0.0099   0.0100   0.0000   0.0000   0.0000   0.00    0.0
2021/05/11 03:46:40.000  -1641132.8104  -3665053.7680   4940068.5730   1  27   0.0099   0.0099   0.0100   0.0000   0.0000   0.0000   0.00    0.0
2021/05/11 03:46:41.000  -1641132.8029  -3665053.7685   4940068.5699   1  27   0.0099   0.0099   0.0100   0.0000   0.0000   0.0000   0.00    0.0
2021/05/11 03:46:42.000  -1641132.8111  -3665053.7697   4940068.5754   1  27   0.0099   0.0099   0.0100   0.0000   0.0000   0.0000   0.00    0.0
2021/05/11 03:46:43.000  -1641132.8114  -3665053.7703   4940068.5762   1  27   0.0099   0.0099   0.0100   0.0000   0.0000   0.0000   0.00    0.0
2021/05/11 03:46:44.000  -1641132.8106  -3665053.7685   4940068.5738   1  27   0.0099   0.0099   0.0100   0.0000   0.0000   0.0000   0.00    0.0
2021/05/11 03:46:45.000  -1641132.8101  -3665053.7674   4940068.5723   1  27   0.0099   0.0099   0.0100   0.0000   0.0000   0.0000   0.00    0.0
2021/05/11 03:46:46.000  -1641132.8096  -3665053.7663   4940068.5707   1  27   0.0099   0.0099   0.0100   0.0000   0.0000   0.0000   0.00    0.0
2021/05/11 03:46:47.000  -1641132.8109  -3665053.7691   4940068.5746   1  27   0.0099   0.0099   0.0100   0.0000   0.0000   0.0000   0.00    0.0
2021/05/11 03:46:48.000  -1641132.8114  -3665053.7703   4940068.5762   1  26   0.0099   0.0099   0.0100   0.0000   0.0000   0.0000   0.00    0.0
2021/05/11 03:46:49.000  -1641132.8114  -3665053.7703   4940068.5762   1  26   0.0099   0.0099   0.0100   0.0000   0.0000   0.0000   0.00    0.0
2021/05/11 03:46:50.000  -1641132.8098  -3665053.7668   4940068.5715   1  26   0.0099   0.0099   0.0100   0.0000   0.0000   0.0000   0.00    0.0
2021/05/11 03:46:51.000  -1641132.8096  -3665053.7663   4940068.5707   1  26   0.0099   0.0099   0.0100   0.0000   0.0000   0.0000   0.00    0.0
2021/05/11 03:46:52.000  -1641132.8109  -3665053.7691   4940068.5746   1  26   0.0099   0.0099   0.0100   0.0000   0.0000   0.0000   0.00    0.0
2021/05/11 03:46:53.000  -1641132.8032  -3665053.7691   4940068.5707   1  26   0.0099   0.0099   0.0100   0.0000   0.0000   0.0000   0.00    0.0
2021/05/11 03:46:54.000  -1641132.8101  -3665053.7674   4940068.5723   1  26   0.0099   0.0099   0.0100   0.0000   0.0000   0.0000   0.00    0.0
2021/05/11 03:46:55.000  -1641132.8109  -3665053.7691   4940068.5746   1  26   0.0099   0.0099   0.0100   0.0000   0.0000   0.0000   0.00    0.0
2021/05/11 03:46:56.000  -1641132.8124  -3665053.7726   4940068.5793   1  26   0.0099   0.0099   0.0100   0.0000   0.0000   0.0000   0.00    0.0
2021/05/11 03:46:57.000  -1641132.8106  -3665053.7685   4940068.5738   1  26   0.0099   0.0099   0.0100   0.0000   0.0000   0.0000   0.00    0.0
2021/05/11 03:46:58.000  -1641132.8106  -3665053.7685   4940068.5738   1  27   0.0099   0.0099   0.0100   0.0000   0.0000   0.0000   0.00    0.0
2021/05/11 03:46:59.000  -1641132.8101  -3665053.7674   4940068.5723   1  27   0.0099   0.0099   0.0100   0.0000   0.0000   0.0000   0.00    0.0
2021/05/11 03:47:00.000  -1641132.8091  -3665053.7651   4940068.5692   1  27   0.0099   0.0099   0.0100   0.0000   0.0000   0.0000   0.00    0.0
2021/05/11 03:47:01.000  -1641132.8096  -3665053.7663   4940068.5707   1  27   0.0099   0.0099   0.0100   0.0000   0.0000   0.0000   0.00    0.0
2021/05/11 03:47:02.000  -1641132.8101  -3665053.7674   4940068.5723   1  27   0.0099   0.0099   0.0100   0.0000   0.0000   0.0000   0.00    0.0
2021/05/11 03:47:03.000  -1641132.8106  -3665053.7685   4940068.5738   1  27   0.0099   0.0099   0.0100   0.0000   0.0000   0.0000   0.00    0.0
2021/05/11 03:47:04.000  -1641132.8086  -3665053.7640   4940068.5676   1  27   0.0099   0.0099   0.0100   0.0000   0.0000   0.0000   0.00    0.0
2021/05/11 03:47:05.000  -1641132.8096  -3665053.7663   4940068.5707   1  27   0.0099   0.0099   0.0100   0.0000   0.0000   0.0000   0.00    0.0
2021/05/11 03:47:06.000  -1641132.8093  -3665053.7657   4940068.5699   1  27   0.0099   0.0099   0.0100   0.0000   0.0000   0.0000   0.00    0.0
2021/05/11 03:47:07.000  -1641132.8096  -3665053.7663   4940068.5707   1  27   0.0099   0.0099   0.0100   0.0000   0.0000   0.0000   0.00    0.0
2021/05/11 03:47:08.000  -1641132.8091  -3665053.7651   4940068.5692   1  27   0.0099   0.0099   0.0100   0.0000   0.0000   0.0000   0.00    0.0
2021/05/11 03:47:09.000  -1641132.8104  -3665053.7680   4940068.5730   1  27   0.0099   0.0099   0.0100   0.0000   0.0000   0.0000   0.00    0.0
2021/05/11 03:47:10.000  -1641132.8093  -3665053.7657   4940068.5699   1  27   0.0099   0.0099   0.0100   0.0000   0.0000   0.0000   0.00    0.0
2021/05/11 03:47:11.000  -1641132.8109  -3665053.7691   4940068.5746   1  27   0.0099   0.0099   0.0100   0.0000   0.0000   0.0000   0.00    0.0
2021/05/11 03:47:12.000  -1641132.8040  -3665053.7708   4940068.5730   1  27   0.0099   0.0099   0.0100   0.0000   0.0000   0.0000   0.00    0.0
2021/05/11 03:47:13.000  -1641132.8109  -3665053.7691   4940068.5746   1  27   0.0099   0.0099   0.0100   0.0000   0.0000   0.0000   0.00    0.0
2021/05/11 03:47:14.000  -1641132.8034  -3665053.7697   4940068.5715   1  27   0.0099   0.0099   0.0100   0.0000   0.0000   0.0000   0.00    0.0
2021/05/11 03:47:15.000  -1641132.8091  -3665053.7651   4940068.5692   1  27   0.0099   0.0099   0.0100   0.0000   0.0000   0.0000   0.00    0.0
2021/05/11 03:47:16.000  -1641132.8111  -3665053.7696   4940068.5575   1  27   0.0099   0.0099   0.0100   0.0000   0.0000   0.0000   0.00    0.0
2021/05/11 03:47:17.000  -1641132.8078  -3665053.7622   4940068.5653   1  27   0.0099   0.0099   0.0100   0.0000   0.0000   0.0000   0.00    0.0
2021/05/11 03:47:18.000  -1641132.8096  -3665053.7663   4940068.5707   1  27   0.0099   0.0099   0.0100   0.0000   0.0000   0.0000   0.00    0.0
2021/05/11 03:47:19.000  -1641132.8096  -3665053.7663   4940068.5707   1  27   0.0099   0.0099   0.0100   0.0000   0.0000   0.0000   0.00    0.0
2021/05/11 03:47:20.000  -1641132.8050  -3665053.7731   4940068.5762   1  27   0.0099   0.0099   0.0100   0.0000   0.0000   0.0000   0.00    0.0
2021/05/11 03:47:21.000  -1641132.8122  -3665053.7720   4940068.5785   1  27   0.0099   0.0099   0.0100   0.0000   0.0000   0.0000   0.00    0.0
2021/05/11 03:47:22.000  -1641132.8096  -3665053.7663   4940068.5707   1  27   0.0099   0.0099   0.0100   0.0000   0.0000   0.0000   0.00    0.0
2021/05/11 03:47:23.000  -1641132.8098  -3665053.7668   4940068.5715   1  27   0.0099   0.0099   0.0100   0.0000   0.0000   0.0000   0.00    0.0
2021/05/11 03:47:24.000  -1641132.8037  -3665053.7703   4940068.5723   1  27   0.0099   0.0099   0.0100   0.0000   0.0000   0.0000   0.00    0.0
2021/05/11 03:47:25.000  -1641132.8093  -3665053.7657   4940068.5699   1  27   0.0099   0.0099   0.0100   0.0000   0.0000   0.0000   0.00    0.0
2021/05/11 03:47:26.000  -1641132.8091  -3665053.7651   4940068.5692   1  27   0.0099   0.0099   0.0100   0.0000   0.0000   0.0000   0.00    0.0
2021/05/11 03:47:27.000  -1641132.8101  -3665053.7674   4940068.5723   1  27   0.0099   0.0099   0.0100   0.0000   0.0000   0.0000   0.00    0.0
2021/05/11 03:47:28.000  -1641132.8096  -3665053.7663   4940068.5707   1  27   0.0099   0.0099   0.0100   0.0000   0.0000   0.0000   0.00    0.0
2021/05/11 03:47:29.000  -1641132.8116  -3665053.7708   4940068.5769   1  27   0.0099   0.0099   0.0100   0.0000   0.0000   0.0000   0.00    0.0
2021/05/11 03:47:30.000  -1641132.8116  -3665053.7708   4940068.5769   1  27   0.0099   0.0099   0.0100   0.0000   0.0000   0.0000   0.00    0.0
2021/05/11 03:47:31.000  -1641132.8096  -3665053.7663   4940068.5707   1  27   0.0099   0.0099   0.0100   0.0000   0.0000   0.0000   0.00    0.0
2021/05/11 03:47:32.000  -1641132.8088  -3665053.7645   4940068.5684   1  27   0.0099   0.0099   0.0100   0.0000   0.0000   0.0000   0.00    0.0
2021/05/11 03:47:33.000  -1641132.8106  -3665053.7685   4940068.5738   1  27   0.0099   0.0099   0.0100   0.0000   0.0000   0.0000   0.00    0.0
2021/05/11 03:47:34.000  -1641132.8098  -3665053.7668   4940068.5715   1  27   0.0099   0.0099   0.0100   0.0000   0.0000   0.0000   0.00    0.0
2021/05/11 03:47:35.000  -1641132.8096  -3665053.7663   4940068.5707   1  27   0.0099   0.0099   0.0100   0.0000   0.0000   0.0000   0.00    0.0
2021/05/11 03:47:36.000  -1641132.8083  -3665053.7634   4940068.5668   1  27   0.0099   0.0099   0.0100   0.0000   0.0000   0.0000   0.00    0.0
2021/05/11 03:47:37.000  -1641132.8096  -3665053.7663   4940068.5707   1  27   0.0099   0.0099   0.0100   0.0000   0.0000   0.0000   0.00    0.0
2021/05/11 03:47:38.000  -1641132.8101  -3665053.7674   4940068.5723   1  27   0.0099   0.0099   0.0100   0.0000   0.0000   0.0000   0.00    0.0
2021/05/11 03:47:39.000  -1641132.8098  -3665053.7668   4940068.5715   1  27   0.0099   0.0099   0.0100   0.0000   0.0000   0.0000   0.00    0.0
2021/05/11 03:47:40.000  -1641132.8088  -3665053.7645   4940068.5684   1  27   0.0099   0.0099   0.0100   0.0000   0.0000   0.0000   0.00    0.0
2021/05/11 03:47:41.000  -1641132.8086  -3665053.7640   4940068.5676   1  27   0.0099   0.0099   0.0100   0.0000   0.0000   0.0000   0.00    0.0
2021/05/11 03:47:42.000  -1641132.8093  -3665053.7657   4940068.5699   1  27   0.0099   0.0099   0.0100   0.0000   0.0000   0.0000   0.00    0.0
2021/05/11 03:47:43.000  -1641132.8106  -3665053.7685   4940068.5738   1  27   0.0099   0.0099   0.0100   0.0000   0.0000   0.0000   0.00    0.0
2021/05/11 03:47:44.000  -1641132.8045  -3665053.7720   4940068.5746   1  27   0.0099   0.0099   0.0100   0.0000   0.0000   0.0000   0.00    0.0
2021/05/11 03:47:45.000  -1641132.8029  -3665053.7685   4940068.5699   1  27   0.0099   0.0099   0.0100   0.0000   0.0000   0.0000   0.00    0.0
2021/05/11 03:47:46.000  -1641132.8022  -3665053.7668   4940068.5676   1  27   0.0099   0.0099   0.0100   0.0000   0.0000   0.0000   0.00    0.0
2021/05/11 03:47:47.000  -1641132.8086  -3665053.7640   4940068.5676   1  27   0.0099   0.0099   0.0100   0.0000   0.0000   0.0000   0.00    0.0
2021/05/11 03:47:48.000  -1641132.8088  -3665053.7645   4940068.5684   1  27   0.0099   0.0099   0.0100   0.0000   0.0000   0.0000   0.00    0.0
2021/05/11 03:47:49.000  -1641132.8083  -3665053.7634   4940068.5668   1  27   0.0099   0.0099   0.0100   0.0000   0.0000   0.0000   0.00    0.0
2021/05/11 03:47:50.000  -1641132.8019  -3665053.7662   4940068.5668   1  27   0.0099   0.0099   0.0100   0.0000   0.0000   0.0000   0.00    0.0
2021/05/11 03:47:51.000  -1641132.8101  -3665053.7674   4940068.5723   1  27   0.0099   0.0099   0.0100   0.0000   0.0000   0.0000   0.00    0.0
2021/05/11 03:47:52.000  -1641132.8104  -3665053.7680   4940068.5730   1  27   0.0099   0.0099   0.0100   0.0000   0.0000   0.0000   0.00    0.0
2021/05/11 03:47:53.000  -1641132.8106  -3665053.7685   4940068.5738   1  27   0.0099   0.0099   0.0100   0.0000   0.0000   0.0000   0.00    0.0
2021/05/11 03:47:54.000  -1641132.8019  -3665053.7662   4940068.5668   1  27   0.0099   0.0099   0.0100   0.0000   0.0000   0.0000   0.00    0.0
2021/05/11 03:47:55.000  -1641132.8070  -3665053.7605   4940068.5629   1  27   0.0099   0.0099   0.0100   0.0000   0.0000   0.0000   0.00    0.0
2021/05/11 03:47:56.000  -1641132.8093  -3665053.7657   4940068.5699   1  27   0.0099   0.0099   0.0100   0.0000   0.0000   0.0000   0.00    0.0
2021/05/11 03:47:57.000  -1641132.8037  -3665053.7703   4940068.5723   1  27   0.0099   0.0099   0.0100   0.0000   0.0000   0.0000   0.00    0.0
2021/05/11 03:47:58.000  -1641132.8027  -3665053.7680   4940068.5692   1  27   0.0099   0.0099   0.0100   0.0000   0.0000   0.0000   0.00    0.0
2021/05/11 03:47:59.000  -1641132.8083  -3665053.7634   4940068.5668   1  27   0.0099   0.0099   0.0100   0.0000   0.0000   0.0000   0.00    0.0
2021/05/11 03:48:00.000  -1641132.8019  -3665053.7662   4940068.5668   1  27   0.0099   0.0099   0.0100   0.0000   0.0000   0.0000   0.00    0.0
2021/05/11 03:48:01.000  -1641132.8034  -3665053.7697   4940068.5715   1  27   0.0099   0.0099   0.0100   0.0000   0.0000   0.0000   0.00    0.0
2021/05/11 03:48:02.000  -1641132.8091  -3665053.7651   4940068.5692   1  27   0.0099   0.0099   0.0100   0.0000   0.0000   0.0000   0.00    0.0
2021/05/11 03:48:03.000  -1641132.8086  -3665053.7640   4940068.5676   1  27   0.0099   0.0099   0.0100   0.0000   0.0000   0.0000   0.00    0.0
2021/05/11 03:48:04.000  -1641132.8029  -3665053.7685   4940068.5699   1  27   0.0099   0.0099   0.0100   0.0000   0.0000   0.0000   0.00    0.0
2021/05/11 03:48:05.000  -1641132.8024  -3665053.7674   4940068.5684   1  27   0.0099   0.0099   0.0100   0.0000   0.0000   0.0000   0.00    0.0
2021/05/11 03:48:06.000  -1641132.8024  -3665053.7674   4940068.5684   1  27   0.0099   0.0099   0.0100   0.0000   0.0000   0.0000   0.00    0.0
2021/05/11 03:48:07.000  -1641132.8091  -3665053.7651   4940068.5692   1  27   0.0099   0.0099   0.0100   0.0000   0.0000   0.0000   0.00    0.0
2021/05/11 03:48:08.000  -1641132.8019  -3665053.7662   4940068.5668   1  27   0.0099   0.0099   0.0100   0.0000   0.0000   0.0000   0.00    0.0
2021/05/11 03:48:09.000  -1641132.8017  -3665053.7657   4940068.5660   1  27   0.0099   0.0099   0.0100   0.0000   0.0000   0.0000   0.00    0.0
2021/05/11 03:48:10.000  -1641132.8024  -3665053.7674   4940068.5684   1  27   0.0099   0.0099   0.0100   0.0000   0.0000   0.0000   0.00    0.0
2021/05/11 03:48:11.000  -1641132.8032  -3665053.7691   4940068.5707   1  27   0.0099   0.0099   0.0100   0.0000   0.0000   0.0000   0.00    0.0
2021/05/11 03:48:12.000  -1641132.8093  -3665053.7657   4940068.5699   1  27   0.0099   0.0099   0.0100   0.0000   0.0000   0.0000   0.00    0.0
2021/05/11 03:48:13.000  -1641132.8024  -3665053.7674   4940068.5684   1  27   0.0099   0.0099   0.0100   0.0000   0.0000   0.0000   0.00    0.0
2021/05/11 03:48:14.000  -1641132.8047  -3665053.7726   4940068.5754   1  27   0.0099   0.0099   0.0100   0.0000   0.0000   0.0000   0.00    0.0
2021/05/11 03:48:15.000  -1641132.8040  -3665053.7708   4940068.5730   1  27   0.0099   0.0099   0.0100   0.0000   0.0000   0.0000   0.00    0.0
2021/05/11 03:48:16.000  -1641132.8022  -3665053.7668   4940068.5676   1  27   0.0099   0.0099   0.0100   0.0000   0.0000   0.0000   0.00    0.0
2021/05/11 03:48:17.000  -1641132.8014  -3665053.7651   4940068.5653   1  27   0.0099   0.0099   0.0100   0.0000   0.0000   0.0000   0.00    0.0
2021/05/11 03:48:18.000  -1641132.8032  -3665053.7691   4940068.5707   1  27   0.0099   0.0099   0.0100   0.0000   0.0000   0.0000   0.00    0.0
2021/05/11 03:48:19.000  -1641132.8040  -3665053.7708   4940068.5730   1  27   0.0099   0.0099   0.0100   0.0000   0.0000   0.0000   0.00    0.0
2021/05/11 03:48:20.000  -1641132.8034  -3665053.7697   4940068.5715   1  27   0.0099   0.0099   0.0100   0.0000   0.0000   0.0000   0.00    0.0
2021/05/11 03:48:21.000  -1641132.8034  -3665053.7697   4940068.5715   1  27   0.0099   0.0099   0.0100   0.0000   0.0000   0.0000   0.00    0.0
2021/05/11 03:48:22.000  -1641132.8027  -3665053.7680   4940068.5692   1  27   0.0099   0.0099   0.0100   0.0000   0.0000   0.0000   0.00    0.0
2021/05/11 03:48:23.000  -1641132.8027  -3665053.7680   4940068.5692   1  27   0.0099   0.0099   0.0100   0.0000   0.0000   0.0000   0.00    0.0
2021/05/11 03:48:24.000  -1641132.8050  -3665053.7731   4940068.5762   1  27   0.0099   0.0099   0.0100   0.0000   0.0000   0.0000   0.00    0.0
2021/05/11 03:48:25.000  -1641132.8101  -3665053.7674   4940068.5723   1  27   0.0099   0.0099   0.0100   0.0000   0.0000   0.0000   0.00    0.0
2021/05/11 03:48:26.000  -1641132.8045  -3665053.7720   4940068.5746   1  27   0.0099   0.0099   0.0100   0.0000   0.0000   0.0000   0.00    0.0
2021/05/11 03:48:27.000  -1641132.8096  -3665053.7663   4940068.5707   1  27   0.0099   0.0099   0.0100   0.0000   0.0000   0.0000   0.00    0.0
2021/05/11 03:48:28.000  -1641132.8037  -3665053.7703   4940068.5723   1  27   0.0099   0.0099   0.0100   0.0000   0.0000   0.0000   0.00    0.0
2021/05/11 03:48:29.000  -1641132.8034  -3665053.7697   4940068.5715   1  27   0.0099   0.0099   0.0100   0.0000   0.0000   0.0000   0.00    0.0
2021/05/11 03:48:30.000  -1641132.8113  -3665053.7701   4940068.5583   1  27   0.0099   0.0099   0.0100   0.0000   0.0000   0.0000   0.00    0.0
2021/05/11 03:48:31.000  -1641132.8203  -3665053.7730   4940068.5661   1  27   0.0099   0.0099   0.0100   0.0000   0.0000   0.0000   0.00    0.0
2021/05/11 03:48:32.000  -1641132.8501  -3665053.7881   4940068.5451   1  27   0.0099   0.0099   0.0100   0.0000   0.0000   0.0000   0.00    0.0
2021/05/11 03:48:33.000  -1641132.8855  -3665053.7986   4940068.5218   1  27   0.0099   0.0099   0.0100   0.0000   0.0000   0.0000   0.00    0.0
2021/05/11 03:48:34.000  -1641132.9867  -3665053.8360   4940068.4558   1  27   0.0099   0.0099   0.0100   0.0000   0.0000   0.0000   0.00    0.0
2021/05/11 03:48:35.000  -1641133.1640  -3665053.9233   4940068.3432   1  27   0.0099   0.0099   0.0100   0.0000   0.0000   0.0000   0.00    0.0
2021/05/11 03:48:36.000  -1641133.3615  -3665054.0213   4940068.2173   1  27   0.0099   0.0099   0.0100   0.0000   0.0000   0.0000   0.00    0.0
2021/05/11 03:48:37.000  -1641133.5508  -3665054.1352   4940068.0877   1  27   0.0099   0.0099   0.0100   0.0000   0.0000   0.0000   0.00    0.0
2021/05/11 03:48:38.000  -1641133.7621  -3665054.2642   4940067.9331   1  26   0.0099   0.0099   0.0100   0.0000   0.0000   0.0000   0.00    0.0
2021/05/11 03:48:39.000  -1641133.9419  -3665054.3742   4940067.7941   1  27   0.0099   0.0099   0.0100   0.0000   0.0000   0.0000   0.00    0.0
2021/05/11 03:48:40.000  -1641134.1246  -3665054.5079   4940067.6481   1  27   0.0099   0.0099   0.0100   0.0000   0.0000   0.0000   0.00    0.0
2021/05/11 03:48:41.000  -1641134.3228  -3665054.6760   4940067.4601   1  27   0.0099   0.0099   0.0100   0.0000   0.0000   0.0000   0.00    0.0
2021/05/11 03:48:42.000  -1641134.5376  -3665054.8984   4940067.2536   1  27   0.0099   0.0099   0.0100   0.0000   0.0000   0.0000   0.00    0.0
2021/05/11 03:48:43.000  -1641134.7766  -3665055.1751   4940066.9965   1  27   0.0099   0.0099   0.0100   0.0000   0.0000   0.0000   0.00    0.0
2021/05/11 03:48:44.000  -1641135.1552  -3665055.7118   4940066.5018   1  27   0.0099   0.0099   0.0100   0.0000   0.0000   0.0000   0.00    0.0
2021/05/11 03:48:45.000  -1641135.8365  -3665056.8388   4940065.4991   1  27   0.0099   0.0099   0.0100   0.0000   0.0000   0.0000   0.00    0.0
2021/05/11 03:48:46.000  -1641136.9222  -3665058.2003   4940064.1516   1  27   0.0099   0.0099   0.0100   0.0000   0.0000   0.0000   0.00    0.0
2021/05/11 03:48:47.000  -1641138.8743  -3665059.5758   4940062.5144   1  27   0.0099   0.0099   0.0100   0.0000   0.0000   0.0000   0.00    0.0
2021/05/11 03:48:48.000  -1641141.6159  -3665060.8449   4940060.6783   1  27   0.0099   0.0099   0.0100   0.0000   0.0000   0.0000   0.00    0.0
2021/05/11 03:48:49.000  -1641145.2106  -3665062.1330   4940058.5339   1  27   0.0099   0.0099   0.0100   0.0000   0.0000   0.0000   0.00    0.0
2021/05/11 03:48:50.000  -1641149.4919  -3665063.5136   4940056.0445   1  27   0.0099   0.0099   0.0100   0.0000   0.0000   0.0000   0.00    0.0
2021/05/11 03:48:51.000  -1641154.3168  -3665065.0794   4940053.2072   1  27   0.0099   0.0099   0.0100   0.0000   0.0000   0.0000   0.00    0.0
2021/05/11 03:48:52.000  -1641159.6876  -3665066.7665   4940050.0926   1  27   0.0099   0.0099   0.0100   0.0000   0.0000   0.0000   0.00    0.0
2021/05/11 03:48:53.000  -1641165.4543  -3665068.5146   4940046.7690   1  26   0.0099   0.0099   0.0100   0.0000   0.0000   0.0000   0.00    0.0
2021/05/11 03:48:54.000  -1641171.2898  -3665070.2792   4940043.3926   1  25   0.0099   0.0099   0.0100   0.0000   0.0000   0.0000   0.00    0.0
2021/05/11 03:48:55.000  -1641177.0493  -3665072.0455   4940039.9974   1  26   0.0099   0.0099   0.0100   0.0000   0.0000   0.0000   0.00    0.0
2021/05/11 03:48:56.000  -1641182.2935  -3665073.9130   4940036.7570   1  27   0.0099   0.0099   0.0100   0.0000   0.0000   0.0000   0.00    0.0
2021/05/11 03:48:57.000  -1641186.4860  -3665075.6954   4940033.9507   1  27   0.0099   0.0099   0.0100   0.0000   0.0000   0.0000   0.00    0.0
2021/05/11 03:48:58.000  -1641189.9748  -3665077.1412   4940031.6298   1  27   0.0099   0.0099   0.0100   0.0000   0.0000   0.0000   0.00    0.0
2021/05/11 03:48:59.000  -1641192.6885  -3665077.9022   4940030.0732   1  27   0.0099   0.0099   0.0100   0.0000   0.0000   0.0000   0.00    0.0
